[
    {"name": "나루터", "address": "서울 송파구 백제고분로41길 19-1 2층", "lat": 37.5077632, "lng": 127.1072485, "naver_place_url": "https://map.naver.com/p/entry/place/1747832649", "open_time": "12:00", "close_time": "00:00", "is_24h": false, "iced_americano_price": 4800, "outlet": "many", "wifi": true, "noise": "quiet", "work_fit": "good", "tags": ["넓은매장", "대형테이블", "콘센트많음", "심야영업", "책", "노트북작업", "송리단길"]},
    {"name": "하우피 송리단길", "address": "서울 송파구 백제고분로41길 24 2층", "lat": 37.5080428, "lng": 127.1072876, "naver_place_url": "https://map.naver.com/p/entry/place/2096443990", "open_time": "12:00", "close_time": "21:30", "is_24h": false, "iced_americano_price": 5000, "outlet": "many", "wifi": true, "noise": "quiet", "work_fit": "good", "tags": ["차분함", "콘센트넉넉", "쉐어테이블", "디저트", "주차", "송리단길"]},
    {"name": "스타벅스 석촌호수점", "address": "서울 송파구 석촌호수로 262 (송파동)", "lat": 37.5095155, "lng": 127.1052962, "naver_place_url": "https://map.naver.com/p/entry/place/33979877", "open_time": "08:00", "close_time": "22:00", "is_24h": false, "iced_americano_price": 4700, "outlet": "some", "wifi": true, "noise": "quiet", "work_fit": "ok", "tags": ["석촌호수뷰", "넓은매장", "3층", "통창", "콘센트자리한정"]},
    {"name": "카페 마나랑", "address": "서울 송파구 송파대로49길 37 1층, 2층", "lat": 37.5063643, "lng": 127.1005789, "naver_place_url": "https://map.naver.com/p/entry/place/1059428770", "open_time": "10:00", "close_time": "23:00", "is_24h": false, "iced_americano_price": 5500, "outlet": "many", "wifi": true, "noise": "quiet", "work_fit": "good", "tags": ["넓은매장", "청음실", "LP턴테이블", "도서관분위기", "콘센트많음", "심야영업", "집중하기좋음"]},
    {"name": "투썸플레이스 석촌고분역점", "address": "서울 송파구 삼학사로 47 1층", "lat": 37.5015983, "lng": 127.0966796, "naver_place_url": "https://map.naver.com/p/entry/place/1977430414", "open_time": "08:00", "close_time": "02:00", "is_24h": false, "iced_americano_price": 4500, "outlet": "some", "wifi": true, "noise": "quiet", "work_fit": "good", "tags": ["넓은매장", "뷰", "심야영업", "주차", "콘센트적은편"]},
    {"name": "크레스타운 잠실점", "address": "서울 송파구 백제고분로 63 1층 101호", "lat": 37.5110578, "lng": 127.0788222, "naver_place_url": "https://map.naver.com/p/entry/place/2056725936", "open_time": "07:00", "close_time": "22:00", "is_24h": false, "iced_americano_price": 4300, "outlet": "many", "wifi": true, "noise": "quiet", "work_fit": "good", "tags": ["대형카페", "다양한좌석", "소파석", "단체석", "콘센트많음", "종합운동장역", "노트북작업"]},
    {"name": "스타벅스 잠실역점", "address": "서울 송파구 송파대로 562 (신천동) 1층,2층", "lat": 37.515272, "lng": 127.099231, "naver_place_url": "https://map.naver.com/p/entry/place/11689864", "open_time": "06:30", "close_time": "22:00", "is_24h": false, "iced_americano_price": 4700, "outlet": "many", "wifi": true, "noise": "normal", "work_fit": "good", "tags": ["2층작업", "콘센트넉넉", "잠실역", "직장인", "카공족성지"]},
    {"name": "스타벅스 삼성교점", "address": "서울 강남구 영동대로86길 12 동남유화빌딩 1층", "lat": 37.5079391, "lng": 127.0652522, "naver_place_url": "https://map.naver.com/p/entry/place/32333720", "open_time": "06:30", "close_time": "22:00", "is_24h": false, "iced_americano_price": 4700, "outlet": "many", "wifi": true, "noise": "normal", "work_fit": "good", "tags": ["넓은매장", "대형테이블", "스터디", "소파석", "콘센트좌석", "삼성역"]},
    {"name": "테라로사 포스코센터점", "address": "서울 강남구 테헤란로 440 포스코센터 1층", "lat": 37.5060634, "lng": 127.0560829, "naver_place_url": "https://map.naver.com/p/entry/place/1542149931", "open_time": "07:30", "close_time": "21:00", "is_24h": false, "iced_americano_price": 5500, "outlet": "some", "wifi": true, "noise": "normal", "work_fit": "good", "tags": ["대형카페", "책많음", "통창", "2층작업", "무료주차", "콘센트창가", "포스코센터"]}
]
